header:
  seq: -1
  stamp:
    secs: 1505915637
    nsecs: 546437233
  frame_id: odom
child_frame_id: base_footprint
pose:
  pose:
    position:
      x: 0
      y: 0
      z: 0
    orientation:
      x: 0
      y: 0
      z: 0
      w: 1
twist:
  twist:
    linear:
      x: 0
      y: 0
      z: 0
    angular:
      x: 0
      y: 0
      z: -0.00174533
---
header:
  seq: -1
  stamp:
    secs: 1505915637
    nsecs: 565744893
  frame_id: odom
child_frame_id: base_footprint
pose:
  pose:
    position:
      x: 0
      y: 0
      z: 0
    orientation:
      x: 0
      y: 0
      z: 0
      w: 1
twist:
  twist:
    linear:
      x: 0
      y: 0
      z: 0
    angular:
      x: 0
      y: 0
      z: -0.0015708
---
header:
  seq: -1
  stamp:
    secs: 1505915637
    nsecs: 585711098
  frame_id: odom
child_frame_id: base_footprint
pose:
  pose:
    position:
      x: 0
      y: 0
      z: 0
    orientation:
      x: 0
      y: 0
      z: 0
      w: 1
twist:
  twist:
    linear:
      x: 0
      y: 0
      z: 0
    angular:
      x: 0
      y: 0
      z: -0.0015708
---
header:
  seq: -1
  stamp:
    secs: 1505915637
    nsecs: 605706990
  frame_id: odom
child_frame_id: base_footprint
pose:
  pose:
    position:
      x: 0
      y: 0
      z: 0
    orientation:
      x: 0
      y: 0
      z: 0
      w: 1
twist:
  twist:
    linear:
      x: 0
      y: 0
      z: 0
    angular:
      x: 0
      y: 0
      z: 0
---
header:
  seq: -1
  stamp:
    secs: 1505915637
    nsecs: 627188426
  frame_id: odom
child_frame_id: base_footprint
pose:
  pose:
    position:
      x: 0
      y: 0
      z: 0
    orientation:
      x: 0
      y: 0
      z: 0
      w: 1
twist:
  twist:
    linear:
      x: 0
      y: 0
      z: 0
    angular:
      x: 0
      y: 0
      z: 0
---
header:
  seq: -1
  stamp:
    secs: 1505915637
    nsecs: 645695626
  frame_id: odom
child_frame_id: base_footprint
pose:
  pose:
    position:
      x: 0
      y: 0
      z: 0
    orientation:
      x: 0
      y: 0
      z: 0
      w: 1
twist:
  twist:
    linear:
      x: 0
      y: 0
      z: 0
    angular:
      x: 0
      y: 0
      z: 0
---
header:
  seq: -1
  stamp:
    secs: 1505915637
    nsecs: 665740720
  frame_id: odom
child_frame_id: base_footprint
pose:
  pose:
    position:
      x: 0
      y: 0
      z: 0
    orientation:
      x: 0
      y: 0
      z: 0
      w: 1
twist:
  twist:
    linear:
      x: 0
      y: 0
      z: 0
    angular:
      x: 0
      y: 0
      z: 0
---
header:
  seq: -1
  stamp:
    secs: 1505915637
    nsecs: 685700124
  frame_id: odom
child_frame_id: base_footprint
pose:
  pose:
    position:
      x: 0
      y: 0
      z: 0
    orientation:
      x: 0
      y: 0
      z: 0
      w: 1
twist:
  twist:
    linear:
      x: 0
      y: 0
      z: 0
    angular:
      x: 0
      y: 0
      z: -0.000349066
---
header:
  seq: -1
  stamp:
    secs: 1505915637
    nsecs: 705700355
  frame_id: odom
child_frame_id: base_footprint
pose:
  pose:
    position:
      x: 0
      y: 0
      z: 0
    orientation:
      x: 0
      y: 0
      z: 0
      w: 1
twist:
  twist:
    linear:
      x: 0
      y: 0
      z: 0
    angular:
      x: 0
      y: 0
      z: -0.000349066
---
header:
  seq: -1
  stamp:
    secs: 1505915637
    nsecs: 725734036
  frame_id: odom
child_frame_id: base_footprint
pose:
  pose:
    position:
      x: 0
      y: 0
      z: 0
    orientation:
      x: 0
      y: 0
      z: 0
      w: 1
twist:
  twist:
    linear:
      x: 0
      y: 0
      z: 0
    angular:
      x: 0
      y: 0
      z: 0.000523599
---
header:
  seq: -1
  stamp:
    secs: 1505915637
    nsecs: 745894031
  frame_id: odom
child_frame_id: base_footprint
pose:
  pose:
    position:
      x: 0
      y: 0
      z: 0
    orientation:
      x: 0
      y: 0
      z: 0
      w: 1
twist:
  twist:
    linear:
      x: 0
      y: 0
      z: 0
    angular:
      x: 0
      y: 0
      z: 0.000523599
---
header:
  seq: -1
  stamp:
    secs: 1505915637
    nsecs: 765833872
  frame_id: odom
child_frame_id: base_footprint
pose:
  pose:
    position:
      x: 0
      y: 0
      z: 0
    orientation:
      x: 0
      y: 0
      z: 0
      w: 1
twist:
  twist:
    linear:
      x: 0
      y: 0
      z: 0
    angular:
      x: 0
      y: 0
      z: 0
---
header:
  seq: -1
  stamp:
    secs: 1505915637
    nsecs: 785717189
  frame_id: odom
child_frame_id: base_footprint
pose:
  pose:
    position:
      x: 0
      y: 0
      z: 0
    orientation:
      x: 0
      y: 0
      z: 0
      w: 1
twist:
  twist:
    linear:
      x: 0
      y: 0
      z: 0
    angular:
      x: 0
      y: 0
      z: 0
---
header:
  seq: -1
  stamp:
    secs: 1505915637
    nsecs: 805684207
  frame_id: odom
child_frame_id: base_footprint
pose:
  pose:
    position:
      x: 0
      y: 0
      z: 0
    orientation:
      x: 0
      y: 0
      z: 0
      w: 1
twist:
  twist:
    linear:
      x: 0
      y: 0
      z: 0
    angular:
      x: 0
      y: 0
      z: 0.000872665
---
header:
  seq: -1
  stamp:
    secs: 1505915637
    nsecs: 825761113
  frame_id: odom
child_frame_id: base_footprint
pose:
  pose:
    position:
      x: 0
      y: 0
      z: 0
    orientation:
      x: 0
      y: 0
      z: 0
      w: 1
twist:
  twist:
    linear:
      x: 0
      y: 0
      z: 0
    angular:
      x: 0
      y: 0
      z: 0.000872665
---
header:
  seq: -1
  stamp:
    secs: 1505915637
    nsecs: 845697805
  frame_id: odom
child_frame_id: base_footprint
pose:
  pose:
    position:
      x: 0
      y: 0
      z: 0
    orientation:
      x: 0
      y: 0
      z: 0
      w: 1
twist:
  twist:
    linear:
      x: 0
      y: 0
      z: 0
    angular:
      x: 0
      y: 0
      z: 0.00122173
---
header:
  seq: -1
  stamp:
    secs: 1505915637
    nsecs: 865775724
  frame_id: odom
child_frame_id: base_footprint
pose:
  pose:
    position:
      x: 0
      y: 0
      z: 0
    orientation:
      x: 0
      y: 0
      z: 0
      w: 1
twist:
  twist:
    linear:
      x: 0
      y: 0
      z: 0
    angular:
      x: 0
      y: 0
      z: 0.00122173
---
header:
  seq: -1
  stamp:
    secs: 1505915637
    nsecs: 885740879
  frame_id: odom
child_frame_id: base_footprint
pose:
  pose:
    position:
      x: 0
      y: 0
      z: 0
    orientation:
      x: 0
      y: 0
      z: 0
      w: 1
twist:
  twist:
    linear:
      x: 0
      y: 0
      z: 0
    angular:
      x: 0
      y: 0
      z: 0.00191986
---
header:
  seq: -1
  stamp:
    secs: 1505915637
    nsecs: 905745584
  frame_id: odom
child_frame_id: base_footprint
pose:
  pose:
    position:
      x: 0
      y: 0
      z: 0
    orientation:
      x: 0
      y: 0
      z: 0
      w: 1
twist:
  twist:
    linear:
      x: 0
      y: 0
      z: 0
    angular:
      x: 0
      y: 0
      z: 0.00191986
---
header:
  seq: -1
  stamp:
    secs: 1505915637
    nsecs: 925714389
  frame_id: odom
child_frame_id: base_footprint
pose:
  pose:
    position:
      x: 0
      y: 0
      z: 0
    orientation:
      x: 0
      y: 0
      z: 0
      w: 1
twist:
  twist:
    linear:
      x: 0
      y: 0
      z: 0
    angular:
      x: 0
      y: 0
      z: -0.00174533
---
header:
  seq: -1
  stamp:
    secs: 1505915637
    nsecs: 945708320
  frame_id: odom
child_frame_id: base_footprint
pose:
  pose:
    position:
      x: 0
      y: 0
      z: 0
    orientation:
      x: 0
      y: 0
      z: 0
      w: 1
twist:
  twist:
    linear:
      x: 0
      y: 0
      z: 0
    angular:
      x: 0
      y: 0
      z: -0.00174533
---
header:
  seq: -1
  stamp:
    secs: 1505915637
    nsecs: 965825639
  frame_id: odom
child_frame_id: base_footprint
pose:
  pose:
    position:
      x: 0.000127938
      y: 0
      z: 0
    orientation:
      x: 0
      y: 0
      z: 0
      w: 1
twist:
  twist:
    linear:
      x: 0.00639691
      y: 0
      z: 0
    angular:
      x: 0
      y: 0
      z: 0.000872665
---
header:
  seq: -1
  stamp:
    secs: 1505915637
    nsecs: 985698893
  frame_id: odom
child_frame_id: base_footprint
pose:
  pose:
    position:
      x: 0.00149261
      y: 0
      z: 0
    orientation:
      x: 0
      y: 0
      z: 0
      w: 1
twist:
  twist:
    linear:
      x: 0.00639691
      y: 0
      z: 0
    angular:
      x: 0
      y: 0
      z: 0.000872665
---
header:
  seq: -1
  stamp:
    secs: 1505915638
    nsecs: 5703173
  frame_id: odom
child_frame_id: base_footprint
pose:
  pose:
    position:
      x: 0.00243082
      y: 0
      z: 0
    orientation:
      x: 0
      y: 0
      z: 0
      w: 1
twist:
  twist:
    linear:
      x: 0.0469106
      y: 0
      z: 0
    angular:
      x: 0
      y: 0
      z: 0.00139626
---
header:
  seq: -1
  stamp:
    secs: 1505915638
    nsecs: 25710054
  frame_id: odom
child_frame_id: base_footprint
pose:
  pose:
    position:
      x: 0.00349698
      y: 0
      z: 0
    orientation:
      x: 0
      y: 0
      z: 0
      w: 1
twist:
  twist:
    linear:
      x: 0.0469106
      y: 0
      z: 0
    angular:
      x: 0
      y: 0
      z: 0.00139626
---
header:
  seq: -1
  stamp:
    secs: 1505915638
    nsecs: 45700484
  frame_id: odom
child_frame_id: base_footprint
pose:
  pose:
    position:
      x: 0.00413667
      y: 0
      z: 0
    orientation:
      x: 0
      y: 0
      z: -0.000261799
      w: 1
twist:
  twist:
    linear:
      x: 0.0319845
      y: 0
      z: 0
    angular:
      x: 0
      y: 0
      z: -0.0314159
---
header:
  seq: -1
  stamp:
    secs: 1505915638
    nsecs: 65701152
  frame_id: odom
child_frame_id: base_footprint
pose:
  pose:
    position:
      x: 0.00486165
      y: -3.796e-07
      z: 0
    orientation:
      x: 0
      y: 0
      z: -0.000698132
      w: 1
twist:
  twist:
    linear:
      x: 0.0319845
      y: 0
      z: 0
    angular:
      x: 0
      y: 0
      z: -0.0314159
---
header:
  seq: -1
  stamp:
    secs: 1505915638
    nsecs: 85684982
  frame_id: odom
child_frame_id: base_footprint
pose:
  pose:
    position:
      x: 0.00673807
      y: -2.99958e-06
      z: 0
    orientation:
      x: 0
      y: 0
      z: -0.000959931
      w: 1
twist:
  twist:
    linear:
      x: 0.0938213
      y: 0
      z: 0
    angular:
      x: 0
      y: 0
      z: -0.026529
---
header:
  seq: -1
  stamp:
    secs: 1505915638
    nsecs: 105704763
  frame_id: odom
child_frame_id: base_footprint
pose:
  pose:
    position:
      x: 0.00887037
      y: -7.09331e-06
      z: 0
    orientation:
      x: 0
      y: 0
      z: -0.001309
      w: 0.999999
twist:
  twist:
    linear:
      x: 0.0938213
      y: 0
      z: 0
    angular:
      x: 0
      y: 0
      z: -0.026529
---
header:
  seq: -1
  stamp:
    secs: 1505915638
    nsecs: 125682455
  frame_id: odom
child_frame_id: base_footprint
pose:
  pose:
    position:
      x: 0.0108321
      y: -1.22291e-05
      z: 0
    orientation:
      x: 0
      y: 0
      z: -0.001309
      w: 0.999999
twist:
  twist:
    linear:
      x: 0.0980859
      y: 0
      z: 0
    angular:
      x: 0
      y: 0
      z: -0.00453786
---
header:
  seq: -1
  stamp:
    secs: 1505915638
    nsecs: 145673460
  frame_id: odom
child_frame_id: base_footprint
pose:
  pose:
    position:
      x: 0.0125806
      y: -1.68066e-05
      z: 0
    orientation:
      x: 0
      y: 0
      z: -0.001309
      w: 0.999999
twist:
  twist:
    linear:
      x: 0.0980859
      y: 0
      z: 0
    angular:
      x: 0
      y: 0
      z: -0.00453786
---
header:
  seq: -1
  stamp:
    secs: 1505915638
    nsecs: 165808818
  frame_id: odom
child_frame_id: base_footprint
pose:
  pose:
    position:
      x: 0.0145423
      y: -2.19424e-05
      z: 0
    orientation:
      x: 0
      y: 0
      z: -0.001309
      w: 0.999999
twist:
  twist:
    linear:
      x: 0.0980859
      y: 0
      z: 0
    angular:
      x: 0
      y: 0
      z: -0.00628319
---
header:
  seq: -1
  stamp:
    secs: 1505915638
    nsecs: 185699922
  frame_id: odom
child_frame_id: base_footprint
pose:
  pose:
    position:
      x: 0.017826
      y: -3.05392e-05
      z: 0
    orientation:
      x: 0
      y: 0
      z: -0.00139626
      w: 0.999999
twist:
  twist:
    linear:
      x: 0.0980859
      y: 0
      z: 0
    angular:
      x: 0
      y: 0
      z: -0.00628319
---
header:
  seq: -1
  stamp:
    secs: 1505915638
    nsecs: 205715990
  frame_id: odom
child_frame_id: base_footprint
pose:
  pose:
    position:
      x: 0.0211524
      y: -3.98282e-05
      z: 0
    orientation:
      x: 0
      y: 0
      z: -0.001309
      w: 0.999999
twist:
  twist:
    linear:
      x: 0.16632
      y: 0
      z: 0
    angular:
      x: 0
      y: 0
      z: 0.00942478
---
header:
  seq: -1
  stamp:
    secs: 1505915638
    nsecs: 225771246
  frame_id: odom
child_frame_id: base_footprint
pose:
  pose:
    position:
      x: 0.0245641
      y: -4.876e-05
      z: 0
    orientation:
      x: 0
      y: 0
      z: -0.00122173
      w: 0.999999
twist:
  twist:
    linear:
      x: 0.16632
      y: 0
      z: 0
    angular:
      x: 0
      y: 0
      z: 0.00942478
---
header:
  seq: -1
  stamp:
    secs: 1505915638
    nsecs: 245647000
  frame_id: odom
child_frame_id: base_footprint
pose:
  pose:
    position:
      x: 0.0277625
      y: -5.65752e-05
      z: 0
    orientation:
      x: 0
      y: 0
      z: -0.00113446
      w: 0.999999
twist:
  twist:
    linear:
      x: 0.159923
      y: 0
      z: 0
    angular:
      x: 0
      y: 0
      z: 0.00331613
---
header:
  seq: -1
  stamp:
    secs: 1505915638
    nsecs: 265682468
  frame_id: odom
child_frame_id: base_footprint
pose:
  pose:
    position:
      x: 0.0310036
      y: -6.39291e-05
      z: 0
    orientation:
      x: 0
      y: 0
      z: -0.00113446
      w: 0.999999
twist:
  twist:
    linear:
      x: 0.159923
      y: 0
      z: 0
    angular:
      x: 0
      y: 0
      z: 0.00331613
---
header:
  seq: -1
  stamp:
    secs: 1505915638
    nsecs: 285684523
  frame_id: odom
child_frame_id: base_footprint
pose:
  pose:
    position:
      x: 0.0354814
      y: -7.40889e-05
      z: 0
    orientation:
      x: 0
      y: 0
      z: -0.0010472
      w: 0.999999
twist:
  twist:
    linear:
      x: 0.223892
      y: 0
      z: 0
    angular:
      x: 0
      y: 0
      z: 0.00802851
---
header:
  seq: -1
  stamp:
    secs: 1505915638
    nsecs: 305705304
  frame_id: odom
child_frame_id: base_footprint
pose:
  pose:
    position:
      x: 0.0401725
      y: -8.39139e-05
      z: 0
    orientation:
      x: 0
      y: 0
      z: -0.000959931
      w: 1
twist:
  twist:
    linear:
      x: 0.223892
      y: 0
      z: 0
    angular:
      x: 0
      y: 0
      z: 0.00802851
---
header:
  seq: -1
  stamp:
    secs: 1505915638
    nsecs: 326707797
  frame_id: odom
child_frame_id: base_footprint
pose:
  pose:
    position:
      x: 0.0452047
      y: -9.35751e-05
      z: 0
    orientation:
      x: 0
      y: 0
      z: -0.000698132
      w: 1
twist:
  twist:
    linear:
      x: 0.251612
      y: 0
      z: 0
    angular:
      x: 0
      y: 0
      z: 0.0205949
---
header:
  seq: -1
  stamp:
    secs: 1505915638
    nsecs: 346005606
  frame_id: odom
child_frame_id: base_footprint
pose:
  pose:
    position:
      x: 0.0495546
      y: -9.96487e-05
      z: 0
    orientation:
      x: 0
      y: 0
      z: -0.000610865
      w: 1
twist:
  twist:
    linear:
      x: 0.251612
      y: 0
      z: 0
    angular:
      x: 0
      y: 0
      z: 0.0205949
---
header:
  seq: -1
  stamp:
    secs: 1505915638
    nsecs: 365715145
  frame_id: odom
child_frame_id: base_footprint
pose:
  pose:
    position:
      x: 0.0538192
      y: -0.000104859
      z: 0
    orientation:
      x: 0
      y: 0
      z: -0.000436332
      w: 1
twist:
  twist:
    linear:
      x: 0.21323
      y: 0
      z: 0
    angular:
      x: 0
      y: 0
      z: 0.010821
---
header:
  seq: -1
  stamp:
    secs: 1505915638
    nsecs: 385693925
  frame_id: odom
child_frame_id: base_footprint
pose:
  pose:
    position:
      x: 0.0591499
      y: -0.000109511
      z: 0
    orientation:
      x: 0
      y: 0
      z: -0.000349066
      w: 1
twist:
  twist:
    linear:
      x: 0.21323
      y: 0
      z: 0
    angular:
      x: 0
      y: 0
      z: 0.010821
---
header:
  seq: -1
  stamp:
    secs: 1505915638
    nsecs: 405726168
  frame_id: odom
child_frame_id: base_footprint
pose:
  pose:
    position:
      x: 0.0649498
      y: -0.00011356
      z: 0
    orientation:
      x: 0
      y: 0
      z: -0.000174533
      w: 1
twist:
  twist:
    linear:
      x: 0.289993
      y: 0
      z: 0
    angular:
      x: 0
      y: 0
      z: 0.0202458
---
header:
  seq: -1
  stamp:
    secs: 1505915638
    nsecs: 425953702
  frame_id: odom
child_frame_id: base_footprint
pose:
  pose:
    position:
      x: 0.0710055
      y: -0.000115674
      z: 0
    orientation:
      x: 0
      y: 0
      z: 8.72665e-05
      w: 1
twist:
  twist:
    linear:
      x: 0.289993
      y: 0
      z: 0
    angular:
      x: 0
      y: 0
      z: 0.0202458
---
header:
  seq: -1
  stamp:
    secs: 1505915638
    nsecs: 445774118
  frame_id: odom
child_frame_id: base_footprint
pose:
  pose:
    position:
      x: 0.0767201
      y: -0.000114676
      z: 0
    orientation:
      x: 0
      y: 0
      z: 0.000174533
      w: 1
twist:
  twist:
    linear:
      x: 0.285728
      y: 0
      z: 0
    angular:
      x: 0
      y: 0
      z: 0.0102974
---
header:
  seq: -1
  stamp:
    secs: 1505915638
    nsecs: 465838311
  frame_id: odom
child_frame_id: base_footprint
pose:
  pose:
    position:
      x: 0.0821788
      y: -0.000112771
      z: 0
    orientation:
      x: 0
      y: 0
      z: 0.000174533
      w: 1
twist:
  twist:
    linear:
      x: 0.285728
      y: 0
      z: 0
    angular:
      x: 0
      y: 0
      z: 0.0102974
---
header:
  seq: -1
  stamp:
    secs: 1505915638
    nsecs: 485764441
  frame_id: odom
child_frame_id: base_footprint
pose:
  pose:
    position:
      x: 0.0874669
      y: -0.000110925
      z: 0
    orientation:
      x: 0
      y: 0
      z: 0.000523599
      w: 1
twist:
  twist:
    linear:
      x: 0.264405
      y: 0
      z: 0
    angular:
      x: 0
      y: 0
      z: 0.0326377
---
header:
  seq: -1
  stamp:
    secs: 1505915638
    nsecs: 505753271
  frame_id: odom
child_frame_id: base_footprint
pose:
  pose:
    position:
      x: 0.092883
      y: -0.000105253
      z: 0
    orientation:
      x: 0
      y: 0
      z: 0.000959931
      w: 1
twist:
  twist:
    linear:
      x: 0.264405
      y: 0
      z: 0
    angular:
      x: 0
      y: 0
      z: 0.0326377
---
header:
  seq: -1
  stamp:
    secs: 1505915638
    nsecs: 526007629
  frame_id: odom
child_frame_id: base_footprint
pose:
  pose:
    position:
      x: 0.0985975
      y: -9.42822e-05
      z: 0
    orientation:
      x: 0
      y: 0
      z: 0.00139626
      w: 0.999999
twist:
  twist:
    linear:
      x: 0.285728
      y: 0
      z: 0
    angular:
      x: 0
      y: 0
      z: 0.0427606
---
header:
  seq: -1
  stamp:
    secs: 1505915638
    nsecs: 545786094
  frame_id: odom
child_frame_id: base_footprint
pose:
  pose:
    position:
      x: 0.105122
      y: -7.60614e-05
      z: 0
    orientation:
      x: 0
      y: 0
      z: 0.00174533
      w: 0.999998
twist:
  twist:
    linear:
      x: 0.285728
      y: 0
      z: 0
    angular:
      x: 0
      y: 0
      z: 0.0427606
---
header:
  seq: -1
  stamp:
    secs: 1505915638
    nsecs: 565791625
  frame_id: odom
child_frame_id: base_footprint
pose:
  pose:
    position:
      x: 0.111732
      y: -5.29877e-05
      z: 0
    orientation:
      x: 0
      y: 0
      z: 0.00183259
      w: 0.999998
twist:
  twist:
    linear:
      x: 0.330507
      y: 0
      z: 0
    angular:
      x: 0
      y: 0
      z: 0.0120428
---
header:
  seq: -1
  stamp:
    secs: 1505915638
    nsecs: 585751642
  frame_id: odom
child_frame_id: base_footprint
pose:
  pose:
    position:
      x: 0.118257
      y: -2.90729e-05
      z: 0
    orientation:
      x: 0
      y: 0
      z: 0.00174533
      w: 0.999998
twist:
  twist:
    linear:
      x: 0.330507
      y: 0
      z: 0
    angular:
      x: 0
      y: 0
      z: 0.0120428
---
header:
  seq: -1
  stamp:
    secs: 1505915638
    nsecs: 605742410
  frame_id: odom
child_frame_id: base_footprint
pose:
  pose:
    position:
      x: 0.124313
      y: -7.93447e-06
      z: 0
    orientation:
      x: 0
      y: 0
      z: 0.00139626
      w: 0.999999
twist:
  twist:
    linear:
      x: 0.302787
      y: 0
      z: 0
    angular:
      x: 0
      y: 0
      z: -0.0328122
---
header:
  seq: -1
  stamp:
    secs: 1505915638
    nsecs: 625975781
  frame_id: odom
child_frame_id: base_footprint
pose:
  pose:
    position:
      x: 0.130155
      y: 8.38087e-06
      z: 0
    orientation:
      x: 0
      y: 0
      z: 0.0010472
      w: 0.999999
twist:
  twist:
    linear:
      x: 0.302787
      y: 0
      z: 0
    angular:
      x: 0
      y: 0
      z: -0.0328122
---
header:
  seq: -1
  stamp:
    secs: 1505915638
    nsecs: 645718971
  frame_id: odom
child_frame_id: base_footprint
pose:
  pose:
    position:
      x: 0.136382
      y: 2.14212e-05
      z: 0
    orientation:
      x: 0
      y: 0
      z: 0.0010472
      w: 0.999999
twist:
  twist:
    linear:
      x: 0.311316
      y: 0
      z: 0
    angular:
      x: 0
      y: 0
      z: 0.00523599
---
header:
  seq: -1
  stamp:
    secs: 1505915638
    nsecs: 665712363
  frame_id: odom
child_frame_id: base_footprint
pose:
  pose:
    position:
      x: 0.142949
      y: 3.51762e-05
      z: 0
    orientation:
      x: 0
      y: 0
      z: 0.0010472
      w: 0.999999
twist:
  twist:
    linear:
      x: 0.311316
      y: 0
      z: 0
    angular:
      x: 0
      y: 0
      z: 0.00523599
---
header:
  seq: -1
  stamp:
    secs: 1505915638
    nsecs: 685693806
  frame_id: odom
child_frame_id: base_footprint
pose:
  pose:
    position:
      x: 0.149858
      y: 4.96456e-05
      z: 0
    orientation:
      x: 0
      y: 0
      z: 0.000872665
      w: 1
twist:
  twist:
    linear:
      x: 0.345433
      y: 0
      z: 0
    angular:
      x: 0
      y: 0
      z: -0.0230383
---
header:
  seq: -1
  stamp:
    secs: 1505915638
    nsecs: 705787313
  frame_id: odom
child_frame_id: base_footprint
pose:
  pose:
    position:
      x: 0.156383
      y: 6.10336e-05
      z: 0
    orientation:
      x: 0
      y: 0
      z: 0.000436332
      w: 1
twist:
  twist:
    linear:
      x: 0.345433
      y: 0
      z: 0
    angular:
      x: 0
      y: 0
      z: -0.0230383
---
header:
  seq: -1
  stamp:
    secs: 1505915638
    nsecs: 725685667
  frame_id: odom
child_frame_id: base_footprint
pose:
  pose:
    position:
      x: 0.162694
      y: 6.65415e-05
      z: 0
    orientation:
      x: 0
      y: 0
      z: -8.72665e-05
      w: 1
twist:
  twist:
    linear:
      x: 0.315581
      y: 0
      z: 0
    angular:
      x: 0
      y: 0
      z: -0.0579449
---
header:
  seq: -1
  stamp:
    secs: 1505915638
    nsecs: 745713660
  frame_id: odom
child_frame_id: base_footprint
pose:
  pose:
    position:
      x: 0.169091
      y: 6.54251e-05
      z: 0
    orientation:
      x: 0
      y: 0
      z: -0.000698132
      w: 1
twist:
  twist:
    linear:
      x: 0.315581
      y: 0
      z: 0
    angular:
      x: 0
      y: 0
      z: -0.0579449
---
header:
  seq: -1
  stamp:
    secs: 1505915638
    nsecs: 765713703
  frame_id: odom
child_frame_id: base_footprint
pose:
  pose:
    position:
      x: 0.175616
      y: 5.63147e-05
      z: 0
    orientation:
      x: 0
      y: 0
      z: -0.000785398
      w: 1
twist:
  twist:
    linear:
      x: 0.326242
      y: 0
      z: 0
    angular:
      x: 0
      y: 0
      z: -0.0150098
---
header:
  seq: -1
  stamp:
    secs: 1505915638
    nsecs: 785766109
  frame_id: odom
child_frame_id: base_footprint
pose:
  pose:
    position:
      x: 0.182653
      y: 4.52616e-05
      z: 0
    orientation:
      x: 0
      y: 0
      z: -0.000610865
      w: 1
twist:
  twist:
    linear:
      x: 0.326242
      y: 0
      z: 0
    angular:
      x: 0
      y: 0
      z: -0.0150098
---
header:
  seq: -1
  stamp:
    secs: 1505915638
    nsecs: 805828877
  frame_id: odom
child_frame_id: base_footprint
pose:
  pose:
    position:
      x: 0.189817
      y: 3.65085e-05
      z: 0
    orientation:
      x: 0
      y: 0
      z: -0.000261799
      w: 1
twist:
  twist:
    linear:
      x: 0.358227
      y: 0
      z: 0
    angular:
      x: 0
      y: 0
      z: 0.0294961
---
header:
  seq: -1
  stamp:
    secs: 1505915638
    nsecs: 825712931
  frame_id: odom
child_frame_id: base_footprint
pose:
  pose:
    position:
      x: 0.196811
      y: 3.28464e-05
      z: 0
    orientation:
      x: 0
      y: 0
      z: 0
      w: 1
twist:
  twist:
    linear:
      x: 0.358227
      y: 0
      z: 0
    angular:
      x: 0
      y: 0
      z: 0.0294961
---
header:
  seq: -1
  stamp:
    secs: 1505915638
    nsecs: 845711949
  frame_id: odom
child_frame_id: base_footprint
pose:
  pose:
    position:
      x: 0.203165
      y: 3.28464e-05
      z: 0
    orientation:
      x: 0
      y: 0
      z: 8.72665e-05
      w: 1
twist:
  twist:
    linear:
      x: 0.317713
      y: 0
      z: 0
    angular:
      x: 0
      y: 0
      z: 0.0144862
---
header:
  seq: -1
  stamp:
    secs: 1505915638
    nsecs: 865723205
  frame_id: odom
child_frame_id: base_footprint
pose:
  pose:
    position:
      x: 0.209434
      y: 3.39406e-05
      z: 0
    orientation:
      x: 0
      y: 0
      z: 0.000349066
      w: 1
twist:
  twist:
    linear:
      x: 0.317713
      y: 0
      z: 0
    angular:
      x: 0
      y: 0
      z: 0.0144862
---
header:
  seq: -1
  stamp:
    secs: 1505915638
    nsecs: 885831624
  frame_id: odom
child_frame_id: base_footprint
pose:
  pose:
    position:
      x: 0.216343
      y: 3.87637e-05
      z: 0
    orientation:
      x: 0
      y: 0
      z: 0.000698132
      w: 1
twist:
  twist:
    linear:
      x: 0.345433
      y: 0
      z: 0
    angular:
      x: 0
      y: 0
      z: 0.0345575
---
header:
  seq: -1
  stamp:
    secs: 1505915638
    nsecs: 905723541
  frame_id: odom
child_frame_id: base_footprint
pose:
  pose:
    position:
      x: 0.223252
      y: 4.841e-05
      z: 0
    orientation:
      x: 0
      y: 0
      z: 0.0010472
      w: 0.999999
twist:
  twist:
    linear:
      x: 0.345433
      y: 0
      z: 0
    angular:
      x: 0
      y: 0
      z: 0.0345575
---
header:
  seq: -1
  stamp:
    secs: 1505915638
    nsecs: 925703046
  frame_id: odom
child_frame_id: base_footprint
pose:
  pose:
    position:
      x: 0.230501
      y: 6.3594e-05
      z: 0
    orientation:
      x: 0
      y: 0
      z: 0.00148353
      w: 0.999999
twist:
  twist:
    linear:
      x: 0.362491
      y: 0
      z: 0
    angular:
      x: 0
      y: 0
      z: 0.0415388
---
header:
  seq: -1
  stamp:
    secs: 1505915638
    nsecs: 945692726
  frame_id: odom
child_frame_id: base_footprint
pose:
  pose:
    position:
      x: 0.237069
      y: 8.30801e-05
      z: 0
    orientation:
      x: 0
      y: 0
      z: 0.0015708
      w: 0.999999
twist:
  twist:
    linear:
      x: 0.362491
      y: 0
      z: 0
    angular:
      x: 0
      y: 0
      z: 0.0415388
---
header:
  seq: -1
  stamp:
    secs: 1505915638
    nsecs: 965709957
  frame_id: odom
child_frame_id: base_footprint
pose:
  pose:
    position:
      x: 0.243381
      y: 0.000102909
      z: 0
    orientation:
      x: 0
      y: 0
      z: 0.001309
      w: 0.999999
twist:
  twist:
    linear:
      x: 0.315581
      y: 0
      z: 0
    angular:
      x: 0
      y: 0
      z: -0.0275762
---
header:
  seq: -1
  stamp:
    secs: 1505915638
    nsecs: 985687049
  frame_id: odom
child_frame_id: base_footprint
pose:
  pose:
    position:
      x: 0.249948
      y: 0.000120102
      z: 0
    orientation:
      x: 0
      y: 0
      z: 0.000959931
      w: 1
twist:
  twist:
    linear:
      x: 0.315581
      y: 0
      z: 0
    angular:
      x: 0
      y: 0
      z: -0.0275762
---
header:
  seq: -1
  stamp:
    secs: 1505915639
    nsecs: 5704380
  frame_id: odom
child_frame_id: base_footprint
pose:
  pose:
    position:
      x: 0.256729
      y: 0.00013312
      z: 0
    orientation:
      x: 0
      y: 0
      z: 0.000523599
      w: 1
twist:
  twist:
    linear:
      x: 0.339036
      y: 0
      z: 0
    angular:
      x: 0
      y: 0
      z: -0.0296706
---
header:
  seq: -1
  stamp:
    secs: 1505915639
    nsecs: 25701285
  frame_id: odom
child_frame_id: base_footprint
pose:
  pose:
    position:
      x: 0.263211
      y: 0.000139908
      z: 0
    orientation:
      x: 0
      y: 0
      z: 0.000261799
      w: 1
twist:
  twist:
    linear:
      x: 0.339036
      y: 0
      z: 0
    angular:
      x: 0
      y: 0
      z: -0.0296706
---
header:
  seq: -1
  stamp:
    secs: 1505915639
    nsecs: 45686753
  frame_id: odom
child_frame_id: base_footprint
pose:
  pose:
    position:
      x: 0.270077
      y: 0.000143503
      z: 0
    orientation:
      x: 0
      y: 0
      z: 0
      w: 1
twist:
  twist:
    linear:
      x: 0.343301
      y: 0
      z: 0
    angular:
      x: 0
      y: 0
      z: -0.0270526
---
header:
  seq: -1
  stamp:
    secs: 1505915639
    nsecs: 65689245
  frame_id: odom
child_frame_id: base_footprint
pose:
  pose:
    position:
      x: 0.276815
      y: 0.000143503
      z: 0
    orientation:
      x: 0
      y: 0
      z: -0.000261799
      w: 1
twist:
  twist:
    linear:
      x: 0.343301
      y: 0
      z: 0
    angular:
      x: 0
      y: 0
      z: -0.0270526
---
header:
  seq: -1
  stamp:
    secs: 1505915639
    nsecs: 85685826
  frame_id: odom
child_frame_id: base_footprint
pose:
  pose:
    position:
      x: 0.283041
      y: 0.000140243
      z: 0
    orientation:
      x: 0
      y: 0
      z: -0.000436332
      w: 1
twist:
  twist:
    linear:
      x: 0.311316
      y: 0
      z: 0
    angular:
      x: 0
      y: 0
      z: -0.0225147
---
header:
  seq: -1
  stamp:
    secs: 1505915639
    nsecs: 105675344
  frame_id: odom
child_frame_id: base_footprint
pose:
  pose:
    position:
      x: 0.289097
      y: 0.000134959
      z: 0
    orientation:
      x: 0
      y: 0
      z: -0.000785398
      w: 1
twist:
  twist:
    linear:
      x: 0.311316
      y: 0
      z: 0
    angular:
      x: 0
      y: 0
      z: -0.0225147
---
header:
  seq: -1
  stamp:
    secs: 1505915639
    nsecs: 125784588
  frame_id: odom
child_frame_id: base_footprint
pose:
  pose:
    position:
      x: 0.295238
      y: 0.000125312
      z: 0
    orientation:
      x: 0
      y: 0
      z: -0.00139626
      w: 0.999999
twist:
  twist:
    linear:
      x: 0.307052
      y: 0
      z: 0
    angular:
      x: 0
      y: 0
      z: -0.0631809
---
header:
  seq: -1
  stamp:
    secs: 1505915639
    nsecs: 145911232
  frame_id: odom
child_frame_id: base_footprint
pose:
  pose:
    position:
      x: 0.301635
      y: 0.000107449
      z: 0
    orientation:
      x: 0
      y: 0
      z: -0.00191986
      w: 0.999998
twist:
  twist:
    linear:
      x: 0.307052
      y: 0
      z: 0
    angular:
      x: 0
      y: 0
      z: -0.0631809
---
header:
  seq: -1
  stamp:
    secs: 1505915639
    nsecs: 165704673
  frame_id: odom
child_frame_id: base_footprint
pose:
  pose:
    position:
      x: 0.308202
      y: 8.22317e-05
      z: 0
    orientation:
      x: 0
      y: 0
      z: -0.00218166
      w: 0.999998
twist:
  twist:
    linear:
      x: 0.328375
      y: 0
      z: 0
    angular:
      x: 0
      y: 0
      z: -0.0211185
---
header:
  seq: -1
  stamp:
    secs: 1505915639
    nsecs: 185707228
  frame_id: odom
child_frame_id: base_footprint
pose:
  pose:
    position:
      x: 0.314685
      y: 5.39478e-05
      z: 0
    orientation:
      x: 0
      y: 0
      z: -0.00235619
      w: 0.999997
twist:
  twist:
    linear:
      x: 0.328375
      y: 0
      z: 0
    angular:
      x: 0
      y: 0
      z: -0.0211185
---
header:
  seq: -1
  stamp:
    secs: 1505915639
    nsecs: 205722671
  frame_id: odom
child_frame_id: base_footprint
pose:
  pose:
    position:
      x: 0.320783
      y: 2.521e-05
      z: 0
    orientation:
      x: 0
      y: 0
      z: -0.00261799
      w: 0.999997
twist:
  twist:
    linear:
      x: 0.304919
      y: 0
      z: 0
    angular:
      x: 0
      y: 0
      z: -0.0258309
---
header:
  seq: -1
  stamp:
    secs: 1505915639
    nsecs: 225713739
  frame_id: odom
child_frame_id: base_footprint
pose:
  pose:
    position:
      x: 0.326711
      y: -5.82778e-06
      z: 0
    orientation:
      x: 0
      y: 0
      z: -0.00261799
      w: 0.999997
twist:
  twist:
    linear:
      x: 0.304919
      y: 0
      z: 0
    angular:
      x: 0
      y: 0
      z: -0.0258309
---
header:
  seq: -1
  stamp:
    secs: 1505915639
    nsecs: 245684319
  frame_id: odom
child_frame_id: base_footprint
pose:
  pose:
    position:
      x: 0.332681
      y: -3.70888e-05
      z: 0
    orientation:
      x: 0
      y: 0
      z: -0.00235619
      w: 0.999997
twist:
  twist:
    linear:
      x: 0.298522
      y: 0
      z: 0
    angular:
      x: 0
      y: 0
      z: 0.0275762
---
header:
  seq: -1
  stamp:
    secs: 1505915639
    nsecs: 265700174
  frame_id: odom
child_frame_id: base_footprint
pose:
  pose:
    position:
      x: 0.338609
      y: -6.50228e-05
      z: 0
    orientation:
      x: 0
      y: 0
      z: -0.00191986
      w: 0.999998
twist:
  twist:
    linear:
      x: 0.298522
      y: 0
      z: 0
    angular:
      x: 0
      y: 0
      z: 0.0275762
---
header:
  seq: -1
  stamp:
    secs: 1505915639
    nsecs: 285727793
  frame_id: odom
child_frame_id: base_footprint
pose:
  pose:
    position:
      x: 0.344835
      y: -8.89301e-05
      z: 0
    orientation:
      x: 0
      y: 0
      z: -0.0015708
      w: 0.999999
twist:
  twist:
    linear:
      x: 0.311316
      y: 0
      z: 0
    angular:
      x: 0
      y: 0
      z: 0.039968
---
header:
  seq: -1
  stamp:
    secs: 1505915639
    nsecs: 309732047
  frame_id: odom
child_frame_id: base_footprint
pose:
  pose:
    position:
      x: 0.356989
      y: -0.000122886
      z: 0
    orientation:
      x: 0
      y: 0
      z: -0.000872665
      w: 1
twist:
  twist:
    linear:
      x: 0.311316
      y: 0
      z: 0
    angular:
      x: 0
      y: 0
      z: 0.039968
---
header:
  seq: -1
  stamp:
    secs: 1505915639
    nsecs: 325706666
  frame_id: odom
child_frame_id: base_footprint
pose:
  pose:
    position:
      x: 0.356989
      y: -0.000122886
      z: 0
    orientation:
      x: 0
      y: 0
      z: -0.000872665
      w: 1
twist:
  twist:
    linear:
      x: 0.302787
      y: 0
      z: 0
    angular:
      x: 0
      y: 0
      z: 0.034383
---
header:
  seq: -1
  stamp:
    secs: 1505915639
    nsecs: 345702671
  frame_id: odom
child_frame_id: base_footprint
pose:
  pose:
    position:
      x: 0.363002
      y: -0.00013338
      z: 0
    orientation:
      x: 0
      y: 0
      z: -0.000610865
      w: 1
twist:
  twist:
    linear:
      x: 0.302787
      y: 0
      z: 0
    angular:
      x: 0
      y: 0
      z: 0.034383
---
header:
  seq: -1
  stamp:
    secs: 1505915639
    nsecs: 365706464
  frame_id: odom
child_frame_id: base_footprint
pose:
  pose:
    position:
      x: 0.368973
      y: -0.000140675
      z: 0
    orientation:
      x: 0
      y: 0
      z: -0.000698132
      w: 1
twist:
  twist:
    linear:
      x: 0.298522
      y: 0
      z: 0
    angular:
      x: 0
      y: 0
      z: -0.0109956
---
header:
  seq: -1
  stamp:
    secs: 1505915639
    nsecs: 385718719
  frame_id: odom
child_frame_id: base_footprint
pose:
  pose:
    position:
      x: 0.374687
      y: -0.000148654
      z: 0
    orientation:
      x: 0
      y: 0
      z: -0.000785398
      w: 1
twist:
  twist:
    linear:
      x: 0.298522
      y: 0
      z: 0
    angular:
      x: 0
      y: 0
      z: -0.0109956
---
header:
  seq: -1
  stamp:
    secs: 1505915639
    nsecs: 405699949
  frame_id: odom
child_frame_id: base_footprint
pose:
  pose:
    position:
      x: 0.38053
      y: -0.000157831
      z: 0
    orientation:
      x: 0
      y: 0
      z: -0.000698132
      w: 1
twist:
  twist:
    linear:
      x: 0.292125
      y: 0
      z: 0
    angular:
      x: 0
      y: 0
      z: 0.00907571
---
header:
  seq: -1
  stamp:
    secs: 1505915639
    nsecs: 426607328
  frame_id: odom
child_frame_id: base_footprint
pose:
  pose:
    position:
      x: 0.386415
      y: -0.000166048
      z: 0
    orientation:
      x: 0
      y: 0
      z: -0.000610865
      w: 1
twist:
  twist:
    linear:
      x: 0.292125
      y: 0
      z: 0
    angular:
      x: 0
      y: 0
      z: 0.00907571
---
header:
  seq: -1
  stamp:
    secs: 1505915639
    nsecs: 445734986
  frame_id: odom
child_frame_id: base_footprint
pose:
  pose:
    position:
      x: 0.392428
      y: -0.000173395
      z: 0
    orientation:
      x: 0
      y: 0
      z: -0.000785398
      w: 1
twist:
  twist:
    linear:
      x: 0.300655
      y: 0
      z: 0
    angular:
      x: 0
      y: 0
      z: -0.00959931
---
header:
  seq: -1
  stamp:
    secs: 1505915639
    nsecs: 465730428
  frame_id: odom
child_frame_id: base_footprint
pose:
  pose:
    position:
      x: 0.398441
      y: -0.00018284
      z: 0
    orientation:
      x: 0
      y: 0
      z: -0.000872665
      w: 1
twist:
  twist:
    linear:
      x: 0.300655
      y: 0
      z: 0
    angular:
      x: 0
      y: 0
      z: -0.00959931
---
header:
  seq: -1
  stamp:
    secs: 1505915639
    nsecs: 485725221
  frame_id: odom
child_frame_id: base_footprint
pose:
  pose:
    position:
      x: 0.404241
      y: -0.000192963
      z: 0
    orientation:
      x: 0
      y: 0
      z: -0.00113446
      w: 0.999999
twist:
  twist:
    linear:
      x: 0.289993
      y: 0
      z: 0
    angular:
      x: 0
      y: 0
      z: -0.0244346
---
header:
  seq: -1
  stamp:
    secs: 1505915639
    nsecs: 505724914
  frame_id: odom
child_frame_id: base_footprint
pose:
  pose:
    position:
      x: 0.410126
      y: -0.000206316
      z: 0
    orientation:
      x: 0
      y: 0
      z: -0.00148353
      w: 0.999999
twist:
  twist:
    linear:
      x: 0.289993
      y: 0
      z: 0
    angular:
      x: 0
      y: 0
      z: -0.0244346
---
header:
  seq: -1
  stamp:
    secs: 1505915639
    nsecs: 525760145
  frame_id: odom
child_frame_id: base_footprint
pose:
  pose:
    position:
      x: 0.415926
      y: -0.000223524
      z: 0
    orientation:
      x: 0
      y: 0
      z: -0.00191986
      w: 0.999998
twist:
  twist:
    linear:
      x: 0.289993
      y: 0
      z: 0
    angular:
      x: 0
      y: 0
      z: -0.0284489
---
header:
  seq: -1
  stamp:
    secs: 1505915639
    nsecs: 545981753
  frame_id: odom
child_frame_id: base_footprint
pose:
  pose:
    position:
      x: 0.421896
      y: -0.000246449
      z: 0
    orientation:
      x: 0
      y: 0
      z: -0.00209439
      w: 0.999998
twist:
  twist:
    linear:
      x: 0.289993
      y: 0
      z: 0
    angular:
      x: 0
      y: 0
      z: -0.0284489
---
header:
  seq: -1
  stamp:
    secs: 1505915639
    nsecs: 565755681
  frame_id: odom
child_frame_id: base_footprint
pose:
  pose:
    position:
      x: 0.427909
      y: -0.000271637
      z: 0
    orientation:
      x: 0
      y: 0
      z: -0.00209439
      w: 0.999998
twist:
  twist:
    linear:
      x: 0.300655
      y: 0
      z: 0
    angular:
      x: 0
      y: 0
      z: -0.00750492
---
header:
  seq: -1
  stamp:
    secs: 1505915639
    nsecs: 586547508
  frame_id: odom
child_frame_id: base_footprint
pose:
  pose:
    position:
      x: 0.434008
      y: -0.000297181
      z: 0
    orientation:
      x: 0
      y: 0
      z: -0.00218166
      w: 0.999998
twist:
  twist:
    linear:
      x: 0.300655
      y: 0
      z: 0
    angular:
      x: 0
      y: 0
      z: -0.00750492
---
header:
  seq: -1
  stamp:
    secs: 1505915639
    nsecs: 606529101
  frame_id: odom
child_frame_id: base_footprint
pose:
  pose:
    position:
      x: 0.440063
      y: -0.000323604
      z: 0
    orientation:
      x: 0
      y: 0
      z: -0.00226893
      w: 0.999997
twist:
  twist:
    linear:
      x: 0.302787
      y: 0
      z: 0
    angular:
      x: 0
      y: 0
      z: -0.0111701
---
header:
  seq: -1
  stamp:
    secs: 1505915639
    nsecs: 626788872
  frame_id: odom
child_frame_id: base_footprint
pose:
  pose:
    position:
      x: 0.44582
      y: -0.00034973
      z: 0
    orientation:
      x: 0
      y: 0
      z: -0.00244346
      w: 0.999997
twist:
  twist:
    linear:
      x: 0.302787
      y: 0
      z: 0
    angular:
      x: 0
      y: 0
      z: -0.0111701
---
header:
  seq: -1
  stamp:
    secs: 1505915639
    nsecs: 646703863
  frame_id: odom
child_frame_id: base_footprint
pose:
  pose:
    position:
      x: 0.451663
      y: -0.000378282
      z: 0
    orientation:
      x: 0
      y: 0
      z: -0.00261799
      w: 0.999997
twist:
  twist:
    linear:
      x: 0.292125
      y: 0
      z: 0
    angular:
      x: 0
      y: 0
      z: -0.0214675
---
header:
  seq: -1
  stamp:
    secs: 1505915639
    nsecs: 666833358
  frame_id: odom
child_frame_id: base_footprint
pose:
  pose:
    position:
      x: 0.45759
      y: -0.000409319
      z: 0
    orientation:
      x: 0
      y: 0
      z: -0.00287979
      w: 0.999996
twist:
  twist:
    linear:
      x: 0.292125
      y: 0
      z: 0
    angular:
      x: 0
      y: 0
      z: -0.0214675
---
header:
  seq: -1
  stamp:
    secs: 1505915639
    nsecs: 685767863
  frame_id: odom
child_frame_id: base_footprint
pose:
  pose:
    position:
      x: 0.463731
      y: -0.000444689
      z: 0
    orientation:
      x: 0
      y: 0
      z: -0.00296706
      w: 0.999996
twist:
  twist:
    linear:
      x: 0.307052
      y: 0
      z: 0
    angular:
      x: 0
      y: 0
      z: -0.010821
---
header:
  seq: -1
  stamp:
    secs: 1505915639
    nsecs: 707137960
  frame_id: odom
child_frame_id: base_footprint
pose:
  pose:
    position:
      x: 0.46983
      y: -0.000480877
      z: 0
    orientation:
      x: 0
      y: 0
      z: -0.00296706
      w: 0.999996
twist:
  twist:
    linear:
      x: 0.307052
      y: 0
      z: 0
    angular:
      x: 0
      y: 0
      z: -0.010821
---
header:
  seq: -1
  stamp:
    secs: 1505915639
    nsecs: 726840374
  frame_id: odom
child_frame_id: base_footprint
pose:
  pose:
    position:
      x: 0.475885
      y: -0.000516812
      z: 0
    orientation:
      x: 0
      y: 0
      z: -0.00322885
      w: 0.999995
twist:
  twist:
    linear:
      x: 0.302787
      y: 0
      z: 0
    angular:
      x: 0
      y: 0
      z: -0.0261799
---
header:
  seq: -1
  stamp:
    secs: 1505915639
    nsecs: 747076270
  frame_id: odom
child_frame_id: base_footprint
pose:
  pose:
    position:
      x: 0.487698
      y: -0.000601314
      z: 0
    orientation:
      x: 0
      y: 0
      z: -0.00479964
      w: 0.999988
twist:
  twist:
    linear:
      x: 0.302787
      y: 0
      z: 0
    angular:
      x: 0
      y: 0
      z: -0.0261799
---
header:
  seq: -1
  stamp:
    secs: 1505915639
    nsecs: 766320991
  frame_id: odom
child_frame_id: base_footprint
pose:
  pose:
    position:
      x: 0.487698
      y: -0.000601314
      z: 0
    orientation:
      x: 0
      y: 0
      z: -0.00479964
      w: 0.999988
twist:
  twist:
    linear:
      x: 0.294258
      y: 0
      z: 0
    angular:
      x: 0
      y: 0
      z: -0.093026
---
header:
  seq: -1
  stamp:
    secs: 1505915639
    nsecs: 786845215
  frame_id: odom
child_frame_id: base_footprint
pose:
  pose:
    position:
      x: 0.493753
      y: -0.000659444
      z: 0
    orientation:
      x: 0
      y: 0
      z: -0.00575955
      w: 0.999983
twist:
  twist:
    linear:
      x: 0.294258
      y: 0
      z: 0
    angular:
      x: 0
      y: 0
      z: -0.093026
---
header:
  seq: -1
  stamp:
    secs: 1505915639
    nsecs: 805720182
  frame_id: odom
child_frame_id: base_footprint
pose:
  pose:
    position:
      x: 0.499723
      y: -0.000728217
      z: 0
    orientation:
      x: 0
      y: 0
      z: -0.006894
      w: 0.999976
twist:
  twist:
    linear:
      x: 0.298522
      y: 0
      z: 0
    angular:
      x: 0
      y: 0
      z: -0.122348
---
header:
  seq: -1
  stamp:
    secs: 1505915639
    nsecs: 825717962
  frame_id: odom
child_frame_id: base_footprint
pose:
  pose:
    position:
      x: 0.505907
      y: -0.000813475
      z: 0
    orientation:
      x: 0
      y: 0
      z: -0.00855201
      w: 0.999963
twist:
  twist:
    linear:
      x: 0.298522
      y: 0
      z: 0
    angular:
      x: 0
      y: 0
      z: -0.122348
---
header:
  seq: -1
  stamp:
    secs: 1505915639
    nsecs: 845734993
  frame_id: odom
child_frame_id: base_footprint
pose:
  pose:
    position:
      x: 0.511919
      y: -0.00091632
      z: 0
    orientation:
      x: 0
      y: 0
      z: -0.0108208
      w: 0.999941
twist:
  twist:
    linear:
      x: 0.300655
      y: 0
      z: 0
    angular:
      x: 0
      y: 0
      z: -0.242077
---
header:
  seq: -1
  stamp:
    secs: 1505915639
    nsecs: 865742736
  frame_id: odom
child_frame_id: base_footprint
pose:
  pose:
    position:
      x: 0.517803
      y: -0.00104368
      z: 0
    orientation:
      x: 0
      y: 0
      z: -0.0137004
      w: 0.999906
twist:
  twist:
    linear:
      x: 0.300655
      y: 0
      z: 0
    angular:
      x: 0
      y: 0
      z: -0.242077
---
header:
  seq: -1
  stamp:
    secs: 1505915639
    nsecs: 885712941
  frame_id: odom
child_frame_id: base_footprint
pose:
  pose:
    position:
      x: 0.523856
      y: -0.00120959
      z: 0
    orientation:
      x: 0
      y: 0
      z: -0.0184122
      w: 0.99983
twist:
  twist:
    linear:
      x: 0.302787
      y: 0
      z: 0
    angular:
      x: 0
      y: 0
      z: -0.328645
---
header:
  seq: -1
  stamp:
    secs: 1505915639
    nsecs: 905722796
  frame_id: odom
child_frame_id: base_footprint
pose:
  pose:
    position:
      x: 0.529822
      y: -0.00142941
      z: 0
    orientation:
      x: 0
      y: 0
      z: -0.0217276
      w: 0.999764
twist:
  twist:
    linear:
      x: 0.302787
      y: 0
      z: 0
    angular:
      x: 0
      y: 0
      z: -0.328645
---
header:
  seq: -1
  stamp:
    secs: 1505915639
    nsecs: 926600100
  frame_id: odom
child_frame_id: base_footprint
pose:
  pose:
    position:
      x: 0.53583
      y: -0.00169065
      z: 0
    orientation:
      x: 0
      y: 0
      z: -0.0253918
      w: 0.999678
twist:
  twist:
    linear:
      x: 0.300655
      y: 0
      z: 0
    angular:
      x: 0
      y: 0
      z: -0.383798
---
header:
  seq: -1
  stamp:
    secs: 1505915639
    nsecs: 945717694
  frame_id: odom
child_frame_id: base_footprint
pose:
  pose:
    position:
      x: 0.541793
      y: -0.00199376
      z: 0
    orientation:
      x: 0
      y: 0
      z: -0.0294918
      w: 0.999565
twist:
  twist:
    linear:
      x: 0.300655
      y: 0
      z: 0
    angular:
      x: 0
      y: 0
      z: -0.383798
---
header:
  seq: -1
  stamp:
    secs: 1505915639
    nsecs: 965713150
  frame_id: odom
child_frame_id: base_footprint
pose:
  pose:
    position:
      x: 0.547753
      y: -0.00234576
      z: 0
    orientation:
      x: 0
      y: 0
      z: -0.0338529
      w: 0.999427
twist:
  twist:
    linear:
      x: 0.298522
      y: 0
      z: 0
    angular:
      x: 0
      y: 0
      z: -0.458847
---
header:
  seq: -1
  stamp:
    secs: 1505915639
    nsecs: 985701092
  frame_id: odom
child_frame_id: base_footprint
pose:
  pose:
    position:
      x: 0.553667
      y: -0.00274688
      z: 0
    orientation:
      x: 0
      y: 0
      z: -0.0383006
      w: 0.999266
twist:
  twist:
    linear:
      x: 0.298522
      y: 0
      z: 0
    angular:
      x: 0
      y: 0
      z: -0.458847
---
header:
  seq: -1
  stamp:
    secs: 1505915640
    nsecs: 5719860
  frame_id: odom
child_frame_id: base_footprint
pose:
  pose:
    position:
      x: 0.559577
      y: -0.00320062
      z: 0
    orientation:
      x: 0
      y: 0
      z: -0.0429219
      w: 0.999078
twist:
  twist:
    linear:
      x: 0.29639
      y: 0
      z: 0
    angular:
      x: 0
      y: 0
      z: -0.490088
---
header:
  seq: -1
  stamp:
    secs: 1505915640
    nsecs: 26388874
  frame_id: odom
child_frame_id: base_footprint
pose:
  pose:
    position:
      x: 0.565568
      y: -0.00371633
      z: 0
    orientation:
      x: 0
      y: 0
      z: -0.0479781
      w: 0.998848
twist:
  twist:
    linear:
      x: 0.29639
      y: 0
      z: 0
    angular:
      x: 0
      y: 0
      z: -0.490088
---
header:
  seq: -1
  stamp:
    secs: 1505915640
    nsecs: 45730359
  frame_id: odom
child_frame_id: base_footprint
pose:
  pose:
    position:
      x: 0.571596
      y: -0.00429675
      z: 0
    orientation:
      x: 0
      y: 0
      z: -0.053556
      w: 0.998565
twist:
  twist:
    linear:
      x: 0.302787
      y: 0
      z: 0
    angular:
      x: 0
      y: 0
      z: -0.587303
---
header:
  seq: -1
  stamp:
    secs: 1505915640
    nsecs: 65704801
  frame_id: odom
child_frame_id: base_footprint
pose:
  pose:
    position:
      x: 0.577575
      y: -0.0049399
      z: 0
    orientation:
      x: 0
      y: 0
      z: -0.0626163
      w: 0.998038
twist:
  twist:
    linear:
      x: 0.302787
      y: 0
      z: 0
    angular:
      x: 0
      y: 0
      z: -0.587303
---
header:
  seq: -1
  stamp:
    secs: 1505915640
    nsecs: 86360977
  frame_id: odom
child_frame_id: base_footprint
pose:
  pose:
    position:
      x: 0.583371
      y: -0.00567014
      z: 0
    orientation:
      x: 0
      y: 0
      z: -0.0687118
      w: 0.997637
twist:
  twist:
    linear:
      x: 0.292125
      y: 0
      z: 0
    angular:
      x: 0
      y: 0
      z: -0.63722
---
header:
  seq: -1
  stamp:
    secs: 1505915640
    nsecs: 106204293
  frame_id: odom
child_frame_id: base_footprint
pose:
  pose:
    position:
      x: 0.589074
      y: -0.00645944
      z: 0
    orientation:
      x: 0
      y: 0
      z: -0.0749787
      w: 0.997185
twist:
  twist:
    linear:
      x: 0.292125
      y: 0
      z: 0
    angular:
      x: 0
      y: 0
      z: -0.63722
---
header:
  seq: -1
  stamp:
    secs: 1505915640
    nsecs: 126751605
  frame_id: odom
child_frame_id: base_footprint
pose:
  pose:
    position:
      x: 0.600405
      y: -0.00824919
      z: 0
    orientation:
      x: 0
      y: 0
      z: -0.0883728
      w: 0.996087
twist:
  twist:
    linear:
      x: 0.289993
      y: 0
      z: 0
    angular:
      x: 0
      y: 0
      z: -0.697085
---
header:
  seq: -1
  stamp:
    secs: 1505915640
    nsecs: 146838661
  frame_id: odom
child_frame_id: base_footprint
pose:
  pose:
    position:
      x: 0.605779
      y: -0.00921022
      z: 0
    orientation:
      x: 0
      y: 0
      z: -0.0953246
      w: 0.995446
twist:
  twist:
    linear:
      x: 0.289993
      y: 0
      z: 0
    angular:
      x: 0
      y: 0
      z: -0.697085
---
header:
  seq: -1
  stamp:
    secs: 1505915640
    nsecs: 166547563
  frame_id: odom
child_frame_id: base_footprint
pose:
  pose:
    position:
      x: 0.605779
      y: -0.00921022
      z: 0
    orientation:
      x: 0
      y: 0
      z: -0.0953246
      w: 0.995446
twist:
  twist:
    linear:
      x: 0.272935
      y: 0
      z: 0
    angular:
      x: 0
      y: 0
      z: -0.731991
---
header:
  seq: -1
  stamp:
    secs: 1505915640
    nsecs: 186362679
  frame_id: odom
child_frame_id: base_footprint
pose:
  pose:
    position:
      x: 0.616649
      y: -0.0113945
      z: 0
    orientation:
      x: 0
      y: 0
      z: -0.109908
      w: 0.993942
twist:
  twist:
    linear:
      x: 0.272935
      y: 0
      z: 0
    angular:
      x: 0
      y: 0
      z: -0.731991
---
header:
  seq: -1
  stamp:
    secs: 1505915640
    nsecs: 206211045
  frame_id: odom
child_frame_id: base_footprint
pose:
  pose:
    position:
      x: 0.622142
      y: -0.0126244
      z: 0
    orientation:
      x: 0
      y: 0
      z: -0.117364
      w: 0.993089
twist:
  twist:
    linear:
      x: 0.281464
      y: 0
      z: 0
    angular:
      x: 0
      y: 0
      z: -0.777544
---
header:
  seq: -1
  stamp:
    secs: 1505915640
    nsecs: 225705082
  frame_id: odom
child_frame_id: base_footprint
pose:
  pose:
    position:
      x: 0.622142
      y: -0.0126244
      z: 0
    orientation:
      x: 0
      y: 0
      z: -0.117364
      w: 0.993089
twist:
  twist:
    linear:
      x: 0.281464
      y: 0
      z: 0
    angular:
      x: 0
      y: 0
      z: -0.777544
---
header:
  seq: -1
  stamp:
    secs: 1505915640
    nsecs: 246286144
  frame_id: odom
child_frame_id: base_footprint
pose:
  pose:
    position:
      x: 0.632647
      y: -0.0152667
      z: 0
    orientation:
      x: 0
      y: 0
      z: -0.13537
      w: 0.990795
twist:
  twist:
    linear:
      x: 0.270802
      y: 0
      z: 0
    angular:
      x: 0
      y: 0
      z: -0.772134
---
header:
  seq: -1
  stamp:
    secs: 1505915640
    nsecs: 265721130
  frame_id: odom
child_frame_id: base_footprint
pose:
  pose:
    position:
      x: 0.632647
      y: -0.0152667
      z: 0
    orientation:
      x: 0
      y: 0
      z: -0.13537
      w: 0.990795
twist:
  twist:
    linear:
      x: 0.270802
      y: 0
      z: 0
    angular:
      x: 0
      y: 0
      z: -0.772134
---
header:
  seq: -1
  stamp:
    secs: 1505915640
    nsecs: 286058590
  frame_id: odom
child_frame_id: base_footprint
pose:
  pose:
    position:
      x: 0.642734
      y: -0.0181472
      z: 0
    orientation:
      x: 0
      y: 0
      z: -0.148068
      w: 0.988977
twist:
  twist:
    linear:
      x: 0.264405
      y: 0
      z: 0
    angular:
      x: 0
      y: 0
      z: -0.695165
---
header:
  seq: -1
  stamp:
    secs: 1505915640
    nsecs: 306543863
  frame_id: odom
child_frame_id: base_footprint
pose:
  pose:
    position:
      x: 0.647831
      y: -0.0197085
      z: 0
    orientation:
      x: 0
      y: 0
      z: -0.153589
      w: 0.988135
twist:
  twist:
    linear:
      x: 0.264405
      y: 0
      z: 0
    angular:
      x: 0
      y: 0
      z: -0.695165
---
header:
  seq: -1
  stamp:
    secs: 1505915640
    nsecs: 326368216
  frame_id: odom
child_frame_id: base_footprint
pose:
  pose:
    position:
      x: 0.652829
      y: -0.0213007
      z: 0
    orientation:
      x: 0
      y: 0
      z: -0.158417
      w: 0.987372
twist:
  twist:
    linear:
      x: 0.266538
      y: 0
      z: 0
    angular:
      x: 0
      y: 0
      z: -0.584511
---
header:
  seq: -1
  stamp:
    secs: 1505915640
    nsecs: 347019155
  frame_id: odom
child_frame_id: base_footprint
pose:
  pose:
    position:
      x: 0.65773
      y: -0.0229149
      z: 0
    orientation:
      x: 0
      y: 0
      z: -0.162723
      w: 0.986672
twist:
  twist:
    linear:
      x: 0.266538
      y: 0
      z: 0
    angular:
      x: 0
      y: 0
      z: -0.584511
---
header:
  seq: -1
  stamp:
    secs: 1505915640
    nsecs: 366457516
  frame_id: odom
child_frame_id: base_footprint
pose:
  pose:
    position:
      x: 0.662617
      y: -0.0245719
      z: 0
    orientation:
      x: 0
      y: 0
      z: -0.166855
      w: 0.985981
twist:
  twist:
    linear:
      x: 0.258009
      y: 0
      z: 0
    angular:
      x: 0
      y: 0
      z: -0.459371
---
header:
  seq: -1
  stamp:
    secs: 1505915640
    nsecs: 386758575
  frame_id: odom
child_frame_id: base_footprint
pose:
  pose:
    position:
      x: 0.66749
      y: -0.0262698
      z: 0
    orientation:
      x: 0
      y: 0
      z: -0.170811
      w: 0.985304
twist:
  twist:
    linear:
      x: 0.258009
      y: 0
      z: 0
    angular:
      x: 0
      y: 0
      z: -0.459371
---
header:
  seq: -1
  stamp:
    secs: 1505915640
    nsecs: 405687154
  frame_id: odom
child_frame_id: base_footprint
pose:
  pose:
    position:
      x: 0.66749
      y: -0.0262698
      z: 0
    orientation:
      x: 0
      y: 0
      z: -0.170811
      w: 0.985304
twist:
  twist:
    linear:
      x: 0.258009
      y: 0
      z: 0
    angular:
      x: 0
      y: 0
      z: -0.411025
---
header:
  seq: -1
  stamp:
    secs: 1505915640
    nsecs: 426065414
  frame_id: odom
child_frame_id: base_footprint
pose:
  pose:
    position:
      x: 0.672469
      y: -0.0280497
      z: 0
    orientation:
      x: 0
      y: 0
      z: -0.175109
      w: 0.984549
twist:
  twist:
    linear:
      x: 0.258009
      y: 0
      z: 0
    angular:
      x: 0
      y: 0
      z: -0.411025
---
header:
  seq: -1
  stamp:
    secs: 1505915640
    nsecs: 446178909
  frame_id: odom
child_frame_id: base_footprint
pose:
  pose:
    position:
      x: 0.68255
      y: -0.031775
      z: 0
    orientation:
      x: 0
      y: 0
      z: -0.178373
      w: 0.983963
twist:
  twist:
    linear:
      x: 0.264405
      y: 0
      z: 0
    angular:
      x: 0
      y: 0
      z: -0.202109
---
header:
  seq: -1
  stamp:
    secs: 1505915640
    nsecs: 465714683
  frame_id: odom
child_frame_id: base_footprint
pose:
  pose:
    position:
      x: 0.68255
      y: -0.031775
      z: 0
    orientation:
      x: 0
      y: 0
      z: -0.178373
      w: 0.983963
twist:
  twist:
    linear:
      x: 0.264405
      y: 0
      z: 0
    angular:
      x: 0
      y: 0
      z: -0.202109
---
header:
  seq: -1
  stamp:
    secs: 1505915640
    nsecs: 485721189
  frame_id: odom
child_frame_id: base_footprint
pose:
  pose:
    position:
      x: 0.687741
      y: -0.0337211
      z: 0
    orientation:
      x: 0
      y: 0
      z: -0.179661
      w: 0.983729
twist:
  twist:
    linear:
      x: 0.277199
      y: 0
      z: 0
    angular:
      x: 0
      y: 0
      z: -0.135438
---
header:
  seq: -1
  stamp:
    secs: 1505915640
    nsecs: 524291670
  frame_id: odom
child_frame_id: base_footprint
pose:
  pose:
    position:
      x: 0.698149
      y: -0.0376672
      z: 0
    orientation:
      x: 0
      y: 0
      z: -0.181721
      w: 0.98335
twist:
  twist:
    linear:
      x: 0.277199
      y: 0
      z: 0
    angular:
      x: 0
      y: 0
      z: -0.102974
---
header:
  seq: -1
  stamp:
    secs: 1505915640
    nsecs: 531549970
  frame_id: odom
child_frame_id: base_footprint
pose:
  pose:
    position:
      x: 0.703406
      y: -0.0396791
      z: 0
    orientation:
      x: 0
      y: 0
      z: -0.182493
      w: 0.983207
twist:
  twist:
    linear:
      x: 0.277199
      y: 0
      z: 0
    angular:
      x: 0
      y: 0
      z: -0.102974
---
header:
  seq: -1
  stamp:
    secs: 1505915640
    nsecs: 545878994
  frame_id: odom
child_frame_id: base_footprint
pose:
  pose:
    position:
      x: 0.703406
      y: -0.0396791
      z: 0
    orientation:
      x: 0
      y: 0
      z: -0.182493
      w: 0.983207
twist:
  twist:
    linear:
      x: 0.277199
      y: 0
      z: 0
    angular:
      x: 0
      y: 0
      z: -0.102974
---
header:
  seq: -1
  stamp:
    secs: 1505915640
    nsecs: 565770673
  frame_id: odom
child_frame_id: base_footprint
pose:
  pose:
    position:
      x: 0.708661
      y: -0.0416992
      z: 0
    orientation:
      x: 0
      y: 0
      z: -0.183008
      w: 0.983111
twist:
  twist:
    linear:
      x: 0.281464
      y: 0
      z: 0
    angular:
      x: 0
      y: 0
      z: -0.0553269
---
header:
  seq: -1
  stamp:
    secs: 1505915640
    nsecs: 585702128
  frame_id: odom
child_frame_id: base_footprint
pose:
  pose:
    position:
      x: 0.714152
      y: -0.0438168
      z: 0
    orientation:
      x: 0
      y: 0
      z: -0.183437
      w: 0.983032
twist:
  twist:
    linear:
      x: 0.281464
      y: 0
      z: 0
    angular:
      x: 0
      y: 0
      z: -0.0553269
---
header:
  seq: -1
  stamp:
    secs: 1505915640
    nsecs: 605722983
  frame_id: odom
child_frame_id: base_footprint
pose:
  pose:
    position:
      x: 0.719641
      y: -0.0459393
      z: 0
    orientation:
      x: 0
      y: 0
