header:
  seq: 0
  stamp:
    secs: 1505915637
    nsecs: 765833854
  frame_id: odom
child_frame_id: base_footprint
cost: 0.00949028
constraints:
  n_equations: 5
  equations: [0, 0, 0, -7.34366e-16, 0]
  n_inequations: 82
  inequations: [-0.100574, 2.0552e-08, 5.11505e-08, -0.100577, -0.285743, -0.523522, -0.751286, -0.89827, -0.97606, -0.998942, -0.999554, -0.999887, -0.999959, -0.999847, -0.999948, -0.999918, -0.998672, -0.759173, -0.999993, -0.999995, -0.999996, -0.999996, -0.999995, -1, -0.999998, -0.999988, -0.999999, -0.999998, -0.999993, -1, -0.999998, -0.999989, -0.999971, -0.999942, -0.971185, -0.886342, -0.749786, -0.576992, -0.393068, -0.228823, -0.104914, -0.029091, 1.14316e-09, 2.90925e-10, -0.00661067, -0.00700274, -0.0035699, 9.21625e-11, 2.193e-09, -0.00726311, -0.999994, -0.999997, -0.999999, -1, -1, -0.999999, -1, -1, -0.999999, -0.999999, -1, -1, -1, -1, -0.999997, -0.999985, -0.864035, -0.864035, -0.864035, -0.864035, -0.864035, -0.864035, -0.864035, -0.864035, -0.864035, -0.864035, -0.824144, -0.356614, -0.343033, -0.327176, -0.311427, -0.295658]
---
header:
  seq: 1
  stamp:
    secs: 1505915637
    nsecs: 985698938
  frame_id: odom
child_frame_id: base_footprint
cost: 0.000955727
constraints:
  n_equations: 5
  equations: [-5.55112e-17, -1.01685e-16, 3.46576e-15, -5.55112e-16, -1.75298e-14]
  n_inequations: 82
  inequations: [1.15463e-14, -0.316924, -0.567875, -0.757311, -0.889576, -0.968896, -0.998405, -0.999224, -0.999459, -0.999941, -0.999648, -0.999871, -0.999993, -0.999996, -0.999993, -1, -0.999936, -0.999982, -0.999998, -1, -1, -1, -1, -1, -1, -1, -1, -1, -1, -1, -1, -1, -1, -1, -0.574426, -0.397897, -0.240096, -0.115632, -0.0342296, 4.36556e-10, 2.25622e-10, -0.0105027, -0.0125385, -0.00761013, -0.00222566, 2.61858e-12, 2.21702e-10, -0.000890561, -0.00133569, 1.3756e-12, -1, -1, -1, -1, -1, -1, -1, -1, -1, -1, -1, -1, -1, -1, -1, -1, -0.864035, -0.864035, -0.864035, -0.864035, -0.864035, -0.864035, -0.864035, -0.83169, -0.35689, -0.343333, -0.327561, -0.311779, -0.296031, -0.280192, -0.261741, -0.245817]
---
header:
  seq: 2
  stamp:
    secs: 1505915638
    nsecs: 205715894
  frame_id: odom
child_frame_id: base_footprint
cost: 1.93793e-05
constraints:
  n_equations: 5
  equations: [0, 4.74067e-17, -3.9569e-15, 1.11022e-15, 1.28709e-14]
  n_inequations: 82
  inequations: [-0.682632, -0.890955, -0.976197, -0.998737, -0.999324, -0.999078, -0.999977, -0.999522, -0.999729, -0.999988, -0.999995, -0.999999, -1, -0.999998, -0.999999, -0.999999, -0.999985, -1, -1, -1, -1, -1, -1, -1, -1, -1, -1, -1, -1, -1, -1, -1, -1, -1, -0.106228, -0.0298224, 1.47135e-12, 2.49939e-12, -0.0109526, -0.015137, -0.0101037, -0.00311522, 7.71142e-13, 5.99829e-13, -0.000704312, -0.000746145, -0.00038008, 4.66186e-12, 1.15619e-11, -0.000774032, -1, -1, -1, -1, -1, -1, -1, -1, -1, -1, -1, -1, -1, -1, -1, -1, -0.864035, -0.864035, -0.864035, -0.864035, -0.827855, -0.356779, -0.343246, -0.327471, -0.311702, -0.295945, -0.280108, -0.26165, -0.24572, -0.226165, -0.20991, -0.191395]
---
header:
  seq: 3
  stamp:
    secs: 1505915638
    nsecs: 565791606
  frame_id: odom
child_frame_id: base_footprint
cost: 6.04519e-12
constraints:
  n_equations: 5
  equations: [-1.38778e-16, 1.10372e-16, -1.60765e-15, -1.29526e-15, 1.50937e-15]
  n_inequations: 82
  inequations: [-1, -1, -1, -1, -1, -1, -1, -1, -1, -1, -1, -1, -1, -1, -1, -1, -1, -1, -1, -1, -1, -1, -1, -1, -1, -1, -1, -1, -1, -1, -1, -1, -1, -1, -3.06576e-06, -2.0438e-06, 4.51068e-11, 4.07082e-14, -5.10984e-06, -1.7736e-05, -3.2618e-05, -3.95493e-05, -3.17361e-05, -1.63654e-05, -4.03111e-06, 0, -1.28189e-06, -4.17622e-06, -4.98244e-06, 6.6305e-15, -1, -1, -1, -1, -1, -1, -1, -1, -1, -1, -1, -1, -1, -1, -1, -1, -0.864035, -0.826987, -0.356645, -0.343021, -0.327148, -0.311406, -0.295614, -0.279785, -0.261309, -0.245358, -0.225779, -0.209575, -0.190996, -0.171246, -0.151811, -0.128596]
---
header:
  seq: 4
  stamp:
    secs: 1505915638
    nsecs: 865723133
  frame_id: odom
child_frame_id: base_footprint
cost: 6.04516e-12
constraints:
  n_equations: 5
  equations: [0, -1.02999e-17, -8.18356e-16, -2.03541e-15, 1.42265e-15]
  n_inequations: 82
  inequations: [-1, -1, -1, -1, -1, -1, -1, -1, -1, -1, -1, -1, -1, -1, -1, -1, -1, -1, -1, -1, -1, -1, -1, -1, -1, -1, -1, -1, -1, -1, -1, -1, -1, -1, -3.06589e-06, -2.0439e-06, 4.51076e-11, 4.02456e-14, -5.10996e-06, -1.77362e-05, -3.26182e-05, -3.95494e-05, -3.17361e-05, -1.63654e-05, -4.03111e-06, -2.62136e-15, -1.28187e-06, -4.17618e-06, -4.98241e-06, 1.58824e-14, -1, -1, -1, -1, -1, -1, -1, -1, -1, -1, -1, -1, -1, -1, -1, -1, -0.343021, -0.327148, -0.311406, -0.295613, -0.279784, -0.261307, -0.245357, -0.225778, -0.209574, -0.190995, -0.171246, -0.15181, -0.128595, -0.108781, -0.0876482, -0.0669742]
---
header:
  seq: 5
  stamp:
    secs: 1505915639
    nsecs: 185707330
  frame_id: odom
child_frame_id: base_footprint
cost: 6.04515e-12
constraints:
  n_equations: 5
  equations: [1.11022e-16, 1.02782e-16, 4.50161e-16, 0, -5.89668e-15]
  n_inequations: 82
  inequations: [-1, -1, -1, -1, -1, -1, -1, -1, -1, -1, -1, -1, -1, -1, -1, -1, -1, -1, -1, -1, -1, -1, -1, -1, -1, -1, -1, -1, -1, -1, -1, -1, -1, -1, -3.06588e-06, -2.04389e-06, 4.51057e-11, 3.80868e-14, -5.10997e-06, -1.77363e-05, -3.26183e-05, -3.95496e-05, -3.17363e-05, -1.63655e-05, -4.03115e-06, -7.70988e-16, -1.28186e-06, -4.17619e-06, -4.98242e-06, 4.00914e-15, -1, -1, -1, -1, -1, -1, -1, -1, -1, -1, -1, -1, -1, -1, -1, -1, -0.295613, -0.279784, -0.261307, -0.245357, -0.225777, -0.209573, -0.190994, -0.171245, -0.15181, -0.128595, -0.108781, -0.0876479, -0.0669737, -0.0450868, -0.0240053, -0.00178845]
---
header:
  seq: 6
  stamp:
    secs: 1505915639
    nsecs: 586547613
  frame_id: odom
child_frame_id: base_footprint
cost: 8.38981e-05
constraints:
  n_equations: 5
  equations: [-1.11022e-16, 4.77049e-17, -6.26235e-16, 2.03541e-15, 6.14212e-16]
  n_inequations: 82
  inequations: [-0.999884, -0.999926, -0.999843, -0.999986, -0.999935, -0.999867, -0.999989, -0.999991, -0.999997, -0.999996, -0.999993, -1, -0.999999, -0.999999, -1, -0.999992, -0.999933, -0.900371, -0.952121, -0.984988, -0.999471, -0.993981, -0.969166, -0.973637, -0.99076, -0.999078, -0.999469, -0.999751, -0.999984, -0.99971, -0.998543, -0.996479, -0.993539, -0.98981, 1.96439e-06, -0.00395821, -0.00690249, -0.00609938, -0.00247882, 0.000130673, 3.66957e-05, -0.000986224, -0.0008692, 1.86241e-06, 0.000606266, 0.000512731, 0.000158814, -2.65793e-05, 0.000409261, 0.00214997, -0.992085, -0.978706, -0.97101, -0.974034, -0.985875, -0.996811, -0.99982, -0.999941, -0.999726, -0.99947, -0.99928, -0.999392, -0.999761, -0.999999, -0.99942, -0.99705, -0.245384, -0.226248, -0.208855, -0.192868, -0.174566, -0.157419, -0.138142, -0.121711, -0.1048, -0.0884075, -0.0713154, -0.0564598, -0.0428473, -0.0289983, -0.0135826, -7.21645e-16]
---
header:
  seq: 7
  stamp:
    secs: 1505915639
    nsecs: 865742683
  frame_id: odom
child_frame_id: base_footprint
cost: 0.000473808
constraints:
  n_equations: 5
  equations: [0, -3.9465e-17, 2.81719e-15, 4.07082e-15, -4.36688e-15]
  n_inequations: 82
  inequations: [-0.999011, -0.999941, -1, -1, -1, -0.999999, -0.999998, -1, -0.999998, -1, -1, -1, -1, -1, -1, -1, -1, -0.993815, -0.999556, -0.998301, -0.988534, -0.969539, -0.941092, -0.974554, -1, -0.974653, -0.994034, -0.999979, -0.997434, -0.999379, -0.999999, -0.999296, -0.99727, -0.993918, -0.000945197, 8.98981e-09, -0.000127615, 4.43833e-08, 3.76674e-08, -0.000456078, -0.000719659, -0.000306015, 1.28638e-08, 8.46902e-10, -3.30001e-05, -4.12753e-05, -2.98196e-05, 2.64145e-08, 2.00163e-08, -5.46728e-05, -0.965029, -0.966227, -0.974678, -0.987407, -0.998177, -0.998926, -0.996472, -0.99892, -0.999957, -0.999653, -0.99997, -0.999949, -0.999875, -0.999956, -0.999958, -0.999204, -0.192845, -0.174597, -0.157763, -0.139171, -0.124445, -0.107087, -0.0903856, -0.0758349, -0.0607121, -0.045557, -0.0334703, -0.0225035, -0.0133836, -0.00769473, -0.00348984, 1.11022e-16]
---
header:
  seq: 8
  stamp:
    secs: 1505915640
    nsecs: 146838665
  frame_id: odom
child_frame_id: base_footprint
cost: 0.00102179
constraints:
  n_equations: 5
  equations: [-1.11022e-16, 3.1225e-17, 3.33067e-16, -9.25186e-16, 4.44089e-16]
  n_inequations: 82
  inequations: [-0.99993, -1, -0.999995, -0.999999, -1, -1, -1, -1, -1, -1, -1, -1, -1, -1, -1, -1, -1, -0.970673, -0.97944, -0.986998, -0.992844, -0.996937, -0.999316, -0.999964, -0.998428, -0.994629, -0.999999, -0.994875, -0.987074, -0.990942, -0.994097, -0.996557, -0.998333, -0.999447, -0.00111025, -0.000509654, 8.44379e-09, 1.30111e-08, -0.000254975, -0.000288904, -9.00343e-05, 1.30477e-08, -0.00016087, -0.000246038, -0.000140087, 1.81172e-10, 7.42107e-12, -3.81256e-05, 3.74854e-13, 2.1509e-12, -0.988635, -0.995943, -0.999064, -0.999947, -0.99996, -0.999903, -0.999995, -0.999724, -0.999161, -0.999705, -0.999709, -0.997309, -0.993514, -0.989367, -0.985674, -0.982997, -0.139492, -0.124422, -0.107152, -0.0908518, -0.0771291, -0.0629421, -0.0491208, -0.0380389, -0.0274252, -0.017075, -0.0102144, -0.0076851, -0.00316814, -0.000427732, -2.77556e-17, 1.38778e-17]
---
header:
  seq: 9
  stamp:
    secs: 1505915640
    nsecs: 485721111
  frame_id: odom
child_frame_id: base_footprint
cost: 0.00049238
constraints:
  n_equations: 5
  equations: [0, -4.16334e-17, -6.10623e-16, -5.55112e-16, 3.4787e-15]
  n_inequations: 82
  inequations: [-0.999988, -0.999992, -0.999986, -1, -0.999986, -0.999994, -0.999996, -0.999997, -0.999998, -0.999997, -1, -1, -1, -1, -1, -1, -1, -0.933929, -0.971501, -0.993463, -0.999938, -0.990686, -0.96597, -0.983066, -0.99998, -0.985239, -0.974218, -0.960034, -0.95354, -0.965548, -0.974256, -0.979992, -0.983041, -0.98352, 2.17746e-09, -0.00127077, -0.00193302, -0.00119599, 1.44942e-07, 7.24655e-08, -0.000763619, -0.000845826, -0.000179893, 8.48511e-08, -0.000221917, -7.64055e-05, 2.0265e-07, 2.73418e-07, 3.67741e-07, 4.91739e-07, -0.998372, -0.99328, -0.991135, -0.99411, -0.999106, -0.999074, -0.997203, -0.998885, -0.999814, -0.994569, -0.9788, -0.954908, -0.927167, -0.8976, -0.866746, -0.833649, -0.101423, -0.0895257, -0.0803106, -0.0682757, -0.0559086, -0.0433565, -0.0309814, -0.0194837, -0.0109713, -0.00645117, -0.00300523, -0.00248051, -1.72751e-12, -0.00190838, -0.00128445, -0.00430927]
---
header:
  seq: 10
  stamp:
    secs: 1505915640
    nsecs: 765816688
  frame_id: odom
child_frame_id: base_footprint
cost: 0.000382391
constraints:
  n_equations: 5
  equations: [2.22045e-16, 1.38778e-17, -3.60822e-15, -3.51571e-15, 1.014e-14]
  n_inequations: 82
  inequations: [-0.999984, -0.99999, -1, -0.999999, -0.999999, -1, -0.999998, -0.999996, -0.999988, -0.999998, -0.999982, -0.99999, -1, -0.99999, -0.999977, -0.999916, -0.998143, -0.964676, -0.981577, -0.992971, -0.998965, -0.999618, -0.994918, -0.983823, -0.965498, -0.939855, -0.974874, -0.99422, -0.999696, -0.975728, -0.91105, -0.804601, -0.651971, -0.488869, -0.000606829, 7.65424e-10, -0.000131422, -0.000462911, -0.000500079, 3.75385e-09, 4.27417e-10, -0.00109858, -0.0014948, -0.000370621, 3.59538e-09, -0.000796793, 1.81538e-07, 9.31898e-08, -0.00292691, 3.57732e-06, -0.998383, -0.999987, -0.999753, -0.999683, -0.999993, -0.99909, -0.993227, -0.976247, -0.951002, -0.932267, -0.926009, -0.940766, -0.971868, -0.998025, -0.983741, -0.879794, -0.0683256, -0.0562196, -0.0440795, -0.0320338, -0.0212635, -0.0122743, -0.00754938, -0.00379373, -0.00293092, -5.22213e-11, -0.00155663, -0.000986763, -0.00507811, -0.00739501, -0.012855, -0.0228369]
---
header:
  seq: 11
  stamp:
    secs: 1505915641
    nsecs: 85706949
  frame_id: odom
child_frame_id: base_footprint
cost: 0.0002797
constraints:
  n_equations: 5
  equations: [0, 2.77556e-17, -2.83107e-15, -5.55112e-16, 6.1016e-15]
  n_inequations: 82
  inequations: [-0.999765, -0.999999, -0.999972, -0.999988, -0.999985, -0.999915, -0.999997, -0.99991, -0.999975, -0.999995, -1, -0.999999, -0.999997, -1, -0.999997, -0.999996, -0.999934, -0.997853, -0.99979, -0.994376, -0.981731, -0.961458, -0.93273, -0.961207, -0.994471, -0.998708, -0.968188, -0.889692, -0.861115, -0.967501, -0.999848, -0.958047, -0.842125, -0.654426, -0.00263244, -0.0016719, 2.71234e-13, 2.42707e-13, -0.00241118, -0.00457402, -0.00316788, 5.28898e-14, -0.000124422, -0.000383247, 1.88843e-10, -0.000209264, -0.000522551, 6.5348e-09, 4.59109e-09, 2.16834e-10, -0.999558, -0.999963, -0.999163, -0.992923, -0.974388, -0.940921, -0.916999, -0.913559, -0.933038, -0.969772, -0.998112, -0.997629, -0.994117, -0.998361, -0.996419, -0.949678, -0.032047, -0.0213102, -0.0123739, -0.00770653, -0.00398969, -0.0031234, -5.32907e-15, -0.00115061, -1.77636e-15, -0.00337588, -0.00505296, -0.00982317, -0.0177573, -0.0298021, -0.0417164, -0.0567366]
---
header:
  seq: 12
  stamp:
    secs: 1505915641
    nsecs: 366779565
  frame_id: odom
child_frame_id: base_footprint
cost: 0.00238534
constraints:
  n_equations: 5
  equations: [0, -4.16334e-17, -1.33227e-15, -7.40149e-15, 8.50708e-15]
  n_inequations: 82
  inequations: [-6.59472e-14, -0.855201, -0.992635, -0.885169, -0.893272, -0.992014, -0.983583, -0.999747, -0.989501, -0.998559, -0.999194, -0.999723, -0.999936, -0.999638, -0.999864, -0.999803, -0.998212, -0.355371, -0.684861, -0.998359, -0.756931, -0.484254, 1.46372e-14, -0.425261, -0.988919, -6.39488e-15, -0.561902, -0.83582, -0.956044, -0.994562, -0.996203, -0.962455, -0.892278, -0.774706, -0.213039, -0.251916, -0.183099, -0.0727168, 7.70988e-16, -0.0154045, -0.0450132, -0.0253847, 5.08852e-15, 2.92976e-15, -0.00949094, -0.0105897, -0.00566448, 1.50189e-13, 2.12793e-13, -0.00971804, -0.954214, -0.908026, -0.957581, -0.999999, -0.922058, -0.623649, -0.465852, -0.708335, -0.929659, -0.992056, -0.999904, -0.996739, -0.996515, -0.999731, -0.995048, -0.958474, -0.00244129, 5.55112e-17, -0.000770816, -0.00691933, -0.0142993, -0.0213323, -0.0272659, -0.0299546, -0.030928, -0.0320924, -0.0358072, -0.0415283, -0.0505934, -0.0606088, -0.0747642, -0.086646]
---
header:
  seq: 13
  stamp:
    secs: 1505915641
    nsecs: 685847997
  frame_id: odom
child_frame_id: base_footprint
cost: 0.0011762
constraints:
  n_equations: 5
  equations: [4.44089e-16, -2.77556e-17, -4.77396e-15, -6.10623e-15, 3.40468e-15]
  n_inequations: 82
  inequations: [-0.877922, -0.945119, -0.9856, -0.997767, -0.999854, -0.999817, -0.999287, -0.999709, -0.999528, -0.99998, -0.999999, -0.999982, -1, -1, -0.999999, -0.999998, -0.999971, 1.10845e-14, -0.549293, -0.777099, -0.891493, -0.956957, -0.988037, -0.97719, -0.669105, -3.60228e-09, -0.784929, -0.995325, -0.866424, -0.963953, -0.999785, -0.97419, -0.887149, -0.739745, -0.0917177, -0.0354477, -0.00913266, 1.97371e-11, 7.76567e-11, -0.009008, -0.0106216, -0.00252667, 1.60352e-09, -0.00169003, -0.00064775, 2.37168e-08, -0.000191036, 8.11561e-08, 3.8411e-08, 4.94036e-09, -0.995383, -0.934427, -0.848825, -0.771674, -0.719427, -0.714412, -0.828396, -0.977054, -0.991562, -0.975048, -0.996484, -0.998897, -0.995469, -0.998153, -0.998418, -0.967258, -0.00952953, -0.0147359, -0.0234264, -0.0305217, -0.036354, -0.0399211, -0.0422569, -0.0449366, -0.0488659, -0.0549779, -0.0636985, -0.0766742, -0.0878544, -0.101847, -0.116596, -0.134693]
---
header:
  seq: 14
  stamp:
    secs: 1505915641
    nsecs: 985738039
  frame_id: odom
child_frame_id: base_footprint
cost: 0.00022156
constraints:
  n_equations: 5
  equations: [-2.22045e-16, -2.77556e-17, 2.16493e-15, -2.22045e-15, 2.51651e-15]
  n_inequations: 82
  inequations: [-0.967138, -0.993107, -0.987352, -0.99997, -0.991827, -0.994227, -0.999994, -0.999996, -0.999958, -0.999946, -0.999998, -0.999973, -0.999996, -0.999999, -0.999997, -1, -0.999954, -0.788114, -0.859744, -0.979617, -0.933928, -0.556571, 1.21582e-05, -0.58876, -0.996763, -0.421375, -0.860338, -0.999806, -0.942092, -0.97943, -0.997803, -0.997536, -0.978622, -0.941498, 1.53527e-09, -0.0377671, -0.0586969, -0.042732, -0.012087, 8.72755e-06, -0.00171211, 2.77847e-05, -0.000417426, -0.00234435, -0.00128417, 4.05731e-06, 6.82317e-05, -0.000498927, -0.0008741, 2.24274e-05, -0.719018, -0.613429, -0.633149, -0.797719, -0.970762, -0.980238, -0.943104, -0.989603, -0.99245, -0.978391, -0.992512, -0.999492, -0.999916, -0.999924, -0.999427, -0.992136, -0.0304822, -0.0358533, -0.0382968, -0.0390945, -0.0397463, -0.0420148, -0.0466016, -0.0542481, -0.0660071, -0.0777622, -0.0909814, -0.104261, -0.117344, -0.134018, -0.148723, -0.149545]
---
header:
  seq: 15
  stamp:
    secs: 1505915642
    nsecs: 286109209
  frame_id: odom
child_frame_id: base_footprint
cost: 9.41314e-06
constraints:
  n_equations: 5
  equations: [4.44089e-16, 0, 2.498e-15, -1.46179e-14, 8.88178e-16]
  n_inequations: 82
  inequations: [-0.999952, -0.992768, -0.995886, -0.999667, -0.999801, -0.999712, -0.99999, -0.999834, -0.999924, -0.999999, -0.999999, -1, -1, -1, -1, -0.999999, -0.999962, -0.511708, -0.655691, -0.812214, -0.909242, -0.964802, -0.993893, -0.999977, -0.994738, -0.980677, -0.998229, -0.996993, -0.990891, -0.999479, -0.997524, -0.985029, -0.961939, -0.928922, -0.0397059, -0.0136869, 9.80818e-06, 1.22563e-05, -0.00607118, -0.00836161, -0.00532652, -0.00134572, 0.000107393, -2.17845e-05, -0.000271637, -0.000178385, 4.53573e-05, 5.93831e-05, -0.000321237, 0.000123814, -0.849279, -0.952264, -0.99064, -0.999758, -0.999173, -0.998448, -0.9993, -0.999922, -0.998481, -0.998642, -0.999969, -0.999799, -0.999906, -0.99964, -0.994831, -0.977819, -0.0392161, -0.0403447, -0.0426308, -0.0457151, -0.0499948, -0.0584045, -0.0677475, -0.0804985, -0.0927607, -0.105747, -0.120847, -0.139934, -0.152492, -0.158341, -0.149899, -0.14348]
---
header:
  seq: 16
  stamp:
    secs: 1505915642
    nsecs: 585713863
  frame_id: odom
child_frame_id: base_footprint
cost: 2.79527e-08
constraints:
  n_equations: 5
  equations: [0, 0, -8.88178e-16, -3.70074e-16, -1.35077e-15]
  n_inequations: 82
  inequations: [-0.999995, -1, -1, -1, -1, -1, -1, -1, -1, -1, -1, -1, -1, -1, -1, -1, -1, -0.995503, -0.995876, -0.996254, -0.996614, -0.996951, -0.997266, -0.99982, -0.99812, -0.989971, -0.998973, -0.998695, -0.994103, -0.996091, -0.997669, -0.998841, -0.999607, -0.999968, -0.000309977, -0.000160069, 1.11466e-05, 1.91379e-05, -9.27811e-05, -0.000111726, 2.43172e-07, 2.60103e-06, -0.000221426, -0.000299889, -0.000136172, 1.19243e-05, 1.92044e-05, -4.2231e-05, -5.27981e-05, 3.74439e-05, -0.994396, -0.997089, -0.99884, -0.99977, -0.999992, -0.999753, -0.999885, -0.999826, -0.998759, -0.998806, -0.999839, -0.999889, -0.999159, -0.998174, -0.997326, -0.99687, -0.0504923, -0.0534338, -0.0600577, -0.0669978, -0.0774472, -0.0880276, -0.0995175, -0.1135, -0.12693, -0.145467, -0.158161, -0.160759, -0.158242, -0.150838, -0.145074, -0.138989]
---
header:
  seq: 17
  stamp:
    secs: 1505915642
    nsecs: 785683870
  frame_id: odom
child_frame_id: base_footprint
cost: 7.10677e-09
constraints:
  n_equations: 5
  equations: [2.22045e-16, 5.55112e-17, 1.88738e-15, -5.55112e-15, -9.42764e-15]
  n_inequations: 82
  inequations: [-1, -1, -1, -1, -1, -1, -1, -1, -1, -1, -1, -1, -1, -1, -1, -1, -1, -0.996574, -0.998336, -0.99947, -0.999972, -0.999844, -0.999084, -0.999444, -0.999979, -0.999796, -0.999817, -0.999837, -0.999833, -0.999779, -0.999716, -0.999646, -0.999567, -0.999482, -5.67497e-05, -2.77602e-05, 2.91458e-10, 4.97664e-10, -3.29501e-05, -7.28998e-05, -6.71679e-05, -1.87161e-05, 1.70528e-10, -1.35164e-05, -2.35625e-05, -1.23475e-05, 4.48167e-10, 7.35024e-10, -9.04198e-06, 1.49561e-09, -0.999694, -0.999953, -0.999995, -0.999989, -0.99989, -0.999567, -0.999349, -0.999428, -0.999628, -0.999778, -0.999885, -0.999963, -0.999999, -0.999974, -0.999862, -0.999639, -0.0669964, -0.0774268, -0.087926, -0.0984766, -0.112996, -0.126231, -0.144532, -0.157996, -0.170712, -0.171914, -0.169217, -0.167763, -0.164127, -0.159395, -0.153982, -0.15181]
---
header:
  seq: 18
  stamp:
    secs: 1505915643
    nsecs: 150825262
  frame_id: odom
child_frame_id: base_footprint
cost: 0.686871
constraints:
  n_equations: 10
  equations: [0, -5.55112e-17, -6.10623e-15, 1.85037e-14, 1.02891e-13, -2.22045e-16, -4.77049e-17, -1.23839e-12, -2.1658e-14, -2.092e-10]
  n_inequations: 39
  inequations: [-0.98677, -0.985644, -0.835965, -0.372878, 1.06004e-12, 1.43441e-13, -9.19265e-14, 1.78524e-13, -5.38236e-13, -0.257137, -0.91741, -0.944782, -0.506912, 4.79119e-12, -0.846457, -0.999679, -0.998639, -0.981457, 1.39857e-13, -0.0862121, -0.271895, -0.518032, -0.729099, -0.878777, -0.969243, -0.961449, -0.957246, -0.999409, -0.93324, -0.729657, -0.715961, -0.712371, -0.122901, -0.134466, -0.149224, -0.157985, -0.166709, -0.174501, -0.178403]
---
